SALE TYPE,SOLD DATE,PROPERTY TYPE,ADDRESS,CITY,STATE OR PROVINCE,ZIP OR POSTAL CODE,PRICE,BEDS,BATHS,LOCATION,SQUARE FEET,LOT SIZE,YEAR BUILT,DAYS ON MARKET,$/SQUARE FEET,HOA/MONTH,STATUS,NEXT OPEN HOUSE START TIME,NEXT OPEN HOUSE END TIME,URL (SEE https://www.redfin.com/buy-a-home/comparative-market-analysis FOR INFO ON PRICING),SOURCE,MLS#,FAVORITE,INTERESTED,LATITUDE,LONGITUDE
MLS Listing,,Townhouse,6706 Debra Lu Way,Springfield,VA,22150,639000,3,2.5,JAPONICA SEC 7,1900,1400,1998,1,336,118,Active,June-11-2022 01:00 PM,June-11-2022 03:00 PM,https://www.redfin.com/VA/Springfield/6706-Debra-Lu-Way-22150/home/9782235,BRIGHT MLS,VAFX2071776,N,Y,38.7730125,-77.1600426
MLS Listing,,Single Family Residential,6206 Duntley Ct,Springfield,VA,22152,689000,4,3.0,KEENE MILL MANOR,2193,14644,1963,19,314,,Active,,,https://www.redfin.com/VA/West-Springfield/6206-Duntley-Ct-22152/home/9745186,BRIGHT MLS,VAFX2070190,N,Y,38.7833105,-77.215838
MLS Listing,,Single Family Residential,8025 Parklane Ct,Springfield,VA,22153,775000,3,3.5,WOODSTREAM,2368,10590,1985,21,327,64,Active,June-12-2022 01:00 PM,June-12-2022 03:00 PM,https://www.redfin.com/VA/Springfield/8025-Parklane-Ct-22153/home/9802018,BRIGHT MLS,VAFX2068924,N,Y,38.7408374,-77.2305237
MLS Listing,,Townhouse,7757 Durer Ct,Springfield,VA,22153,490000,3,2.5,NEWINGTON STATION,1232,1540,1973,21,398,89,Active,,,https://www.redfin.com/VA/Springfield/7757-Durer-Ct-22153/home/9805932,BRIGHT MLS,VAFX2069710,N,Y,38.725876,-77.210678
MLS Listing,,Townhouse,6590 Forest Dew Ct,Springfield,VA,22152,538000,3,3.5,KEENE MILL VILLAGE SEC 3,1626,1600,1985,28,331,110,Active,,,https://www.redfin.com/VA/Springfield/6590-Forest-Dew-Ct-22152/home/9768386,BRIGHT MLS,VAFX2067138,N,Y,38.77629,-77.2600244
MLS Listing,,Single Family Residential,6800 Ben Franklin Rd,Springfield,VA,22150,599000,6,3.0,BEN FRANKLIN PARK,2276,5133,1977,1,263,21,Active,June-11-2022 01:00 PM,June-11-2022 04:00 PM,https://www.redfin.com/VA/Springfield/6800-Ben-Franklin-Rd-22150/home/9777886,BRIGHT MLS,VAFX2073624,N,Y,38.7702236,-77.1930423
MLS Listing,,Single Family Residential,6825 Kite Flyer Ct,Springfield,VA,22150,625000,4,2.5,BEN FRANKLIN PARK,2136,5157,1977,1,293,,Active,June-12-2022 01:00 PM,June-12-2022 03:00 PM,https://www.redfin.com/VA/Springfield/6825-Kite-Flyer-Ct-22150/home/9777806,BRIGHT MLS,VAFX2075302,N,Y,38.7691479,-77.1884535
MLS Listing,,Townhouse,6267 Kerrydale Dr,Springfield,VA,22152,529900,3,3.5,SHANNON STATION,1448,1600,1982,2,366,83,Active,June-11-2022 02:00 PM,June-11-2022 04:00 PM,https://www.redfin.com/VA/Springfield/6267-Kerrydale-Dr-22152/home/9740238,BRIGHT MLS,VAFX2074450,N,Y,38.7802262,-77.254502
MLS Listing,,Townhouse,9007 Mulvaney Ct,Springfield,VA,22152,550000,4,3.5,SHANNON STATION,1926,1600,1982,2,286,84,Active,June-10-2022 05:00 PM,June-10-2022 07:00 PM,https://www.redfin.com/VA/Springfield/9007-Mulvaney-Ct-22152/home/9740206,BRIGHT MLS,VAFX2071112,N,Y,38.779345,-77.2552653
MLS Listing,,Single Family Residential,8812 Cuttermill Pl,Springfield,VA,22153,729900,4,2.5,ROLLING VALLEY,2008,8643,1972,4,363,10,Active,,,https://www.redfin.com/VA/Springfield/8812-Cuttermill-Pl-22153/home/9774725,BRIGHT MLS,VAFX2074788,N,Y,38.7574659,-77.2495182
MLS Listing,,Townhouse,8546 Forrester #880,Springfield,VA,22152,325900,2,1.0,CARDINAL FOREST CONDO,992,,1968,4,329,348,Active,June-11-2022 12:00 PM,June-11-2022 03:00 PM,https://www.redfin.com/VA/West-Springfield/8546-Forrester-Blvd-22152/unit-880/home/9742096,BRIGHT MLS,VAFX2074688,N,Y,38.7921481,-77.2389268
MLS Listing,,Single Family Residential,8005 Lake Pleasant Dr,Springfield,VA,22153,859000,7,4.0,SARATOGA,2296,8400,1972,4,374,6,Active,,,https://www.redfin.com/VA/Springfield/8005-Lake-Pleasant-Dr-22153/home/9802476,BRIGHT MLS,VAFX2074708,N,Y,38.7395084,-77.21997
MLS Listing,,Townhouse,8808 Eagle Rock Ln,Springfield,VA,22153,635000,3,3.0,MIDDLEFORD SEC 2,1892,1650,1991,5,336,83,Active,,,https://www.redfin.com/VA/Springfield/8808-Eagle-Rock-Ln-22153/home/9775682,BRIGHT MLS,VAFX2073828,N,Y,38.755933,-77.249671
MLS Listing,,Townhouse,8868 Eagle Rock Ln,Springfield,VA,22153,635000,3,3.5,MIDDLEFORD SEC 2,2324,1400,1992,5,273,83,Active,,,https://www.redfin.com/VA/Springfield/8868-Eagle-Rock-Ln-22153/home/9775680,BRIGHT MLS,VAFX2072024,N,Y,38.754,-77.249596
MLS Listing,,Single Family Residential,7309 Beverly Park Dr,Springfield,VA,22150,649990,6,3.0,BEVERLY PARK,2016,3440,1977,5,322,,Active,,,https://www.redfin.com/VA/Springfield/7309-Beverly-Park-Dr-22150/home/9778823,BRIGHT MLS,VAFX2074560,N,Y,38.7594912,-77.1911331
MLS Listing,,Single Family Residential,8841 Applecross Ln,Springfield,VA,22153,835000,4,2.5,ROLLING VALLEY,2608,10288,1973,5,320,12,Active,June-11-2022 11:00 AM,June-11-2022 01:00 PM,https://www.redfin.com/VA/Springfield/8841-Applecross-Ln-22153/home/9769929,BRIGHT MLS,VAFX2073278,N,Y,38.7602012,-77.2502366
MLS Listing,,Townhouse,7734 Brandeis Way,Springfield,VA,22153,465777,3,2.0,NEWINGTON STATION,1232,1540,1974,5,378,89,Active,,,https://www.redfin.com/VA/Springfield/7734-Brandeis-Way-22153/home/9805793,BRIGHT MLS,VAFX2073446,N,Y,38.728071,-77.213927
MLS Listing,,Single Family Residential,5621 Ravenel Ln,Springfield,VA,22151,779000,4,3.0,NORTH SPRINGFIELD,2345,25331,1964,6,332,,Active,,,https://www.redfin.com/VA/Springfield/5621-Ravenel-Ln-22151/home/9742554,BRIGHT MLS,VAFX2074074,N,Y,38.797871,-77.2144008
MLS Listing,,Single Family Residential,7718 Griffin Pond Ct,Springfield,VA,22153,975000,5,3.5,LAKEWOOD HILLS,3297,8072,1985,6,296,,Active,,,https://www.redfin.com/VA/Springfield/7718-Griffin-Pond-Ct-22153/home/9798489,BRIGHT MLS,VAFX2070244,N,Y,38.744955,-77.269991
MLS Listing,,Single Family Residential,6816 Front Royal Rd,Springfield,VA,22151,650000,4,2.0,EDSALL PARK,1404,10500,1957,6,463,,Active,,,https://www.redfin.com/VA/Springfield/6816-Front-Royal-Rd-22151/home/9747601,BRIGHT MLS,VAFX2073926,N,Y,38.8041241,-77.1812497
MLS Listing,,Townhouse,6922 Villa Del Rey Ct,Springfield,VA,22150,429950,2,2.5,VILLA DEL REY,1120,1400,1985,6,384,80,Active,,,https://www.redfin.com/VA/Springfield/6922-Villa-Del-Rey-Ct-22150/home/9777986,BRIGHT MLS,VAFX2071576,N,Y,38.767277,-77.188511
MLS Listing,,Single Family Residential,8124 Langbrook Rd,Springfield,VA,22152,899900,5,5.0,CARDINAL FOREST,3184,12375,1967,6,283,,Active,,,https://www.redfin.com/VA/West-Springfield/8124-Langbrook-Rd-22152/home/9745484,BRIGHT MLS,VAFX2073432,N,Y,38.7879931,-77.2268862
MLS Listing,,Single Family Residential,7910 Journey Ln,Springfield,VA,22153,789888,5,2.5,SARATOGA,3658,10184,1975,6,216,6,Active,,,https://www.redfin.com/VA/Springfield/7910-Journey-Ln-22153/home/9802595,BRIGHT MLS,VAFX2062550,N,Y,38.7433223,-77.2235179
MLS Listing,,Single Family Residential,7312 Essex Ave,Springfield,VA,22150,649000,4,2.0,SPRINGFIELD,1620,11612,1955,6,401,,Active,,,https://www.redfin.com/VA/Springfield/7312-Essex-Ave-22150/home/9748433,BRIGHT MLS,VAFX2073114,N,Y,38.7860972,-77.1952659
MLS Listing,,Single Family Residential,7502 Hogarth St,Springfield,VA,22151,625000,3,2.5,NORTH SPRINGFIELD,1632,10500,1956,7,383,,Active,June-12-2022 01:00 PM,June-12-2022 03:00 PM,https://www.redfin.com/VA/Springfield/7502-Hogarth-St-22151/home/9720732,BRIGHT MLS,VAFX2072734,N,Y,38.8091603,-77.20416
MLS Listing,,Townhouse,7005 Leestone St,Springfield,VA,22151,549000,3,3.0,LEEWOOD BLK A,2100,1500,1979,7,261,88,Active,,,https://www.redfin.com/VA/Springfield/7005-Leestone-St-22151/home/9721492,BRIGHT MLS,VAFX2072460,N,Y,38.808895,-77.185919
MLS Listing,,Single Family Residential,8111 W Point Dr,Springfield,VA,22153,899500,3,3.5,SARATOGA,3540,11204,1975,7,254,7,Active,,,https://www.redfin.com/VA/Springfield/8111-W-Point-Dr-22153/home/9802430,BRIGHT MLS,VAFX2070680,N,Y,38.7362887,-77.2216092
MLS Listing,,Townhouse,5678 Kirkham Ct,Springfield,VA,22151,525000,3,3.0,DANBURY FOREST,1554,1540,1973,7,338,89,Active,,,https://www.redfin.com/VA/Springfield/5678-Kirkham-Ct-22151/home/9741317,BRIGHT MLS,VAFX2072002,N,Y,38.8005959,-77.2378322
MLS Listing,,Single Family Residential,5428 Backlick Rd,Springfield,VA,22151,534900,2,2.0,NORTH SPRINGFIELD,1036,13060,1955,7,516,,Active,,,https://www.redfin.com/VA/Springfield/5428-Backlick-Rd-22151/home/9747801,BRIGHT MLS,VAFX2073010,N,Y,38.8026642,-77.1843945
MLS Listing,,Single Family Residential,5512 Margate St,Springfield,VA,22151,780000,4,3.5,KINGS PARK,2895,11842,1965,7,269,,Active,,,https://www.redfin.com/VA/Springfield/5512-Margate-St-22151/home/9740749,BRIGHT MLS,VAFX2073954,N,Y,38.8016854,-77.2434116
MLS Listing,,Single Family Residential,7913 Gosport Ln,Springfield,VA,22151,724900,4,2.0,RAVENSWORTH,2144,10800,1963,7,338,,Active,June-12-2022 02:00 PM,June-12-2022 04:00 PM,https://www.redfin.com/VA/Springfield/7913-Gosport-Ln-22151/home/9742962,BRIGHT MLS,VAFX2072670,N,Y,38.8019724,-77.2191166
MLS Listing,,Single Family Residential,7904 Laural Valley Way,Springfield,VA,22153,750000,4,3.0,SARATOGA,2233,8800,1977,7,336,,Active,,,https://www.redfin.com/VA/Springfield/7904-Laural-Valley-Way-22153/home/9802869,BRIGHT MLS,VAFX2072354,N,Y,38.7472893,-77.2175447
MLS Listing,,Townhouse,9003 Armendown Dr,Springfield,VA,22152,545000,3,3.5,SHANNON STATION,1284,1742,1982,8,424,83,Active,,,https://www.redfin.com/VA/Springfield/9003-Armendown-Dr-22152/home/9740255,BRIGHT MLS,VAFX2070438,N,Y,38.7800982,-77.2567133
MLS Listing,,Townhouse,7371 Stream Bluff Way,Springfield,VA,22153,699900,3,3.0,POHICK OVERLOOK,2476,1968,2002,8,283,100,Active,,,https://www.redfin.com/VA/Springfield/7371-Stream-Bluff-Way-22153/home/9841673,BRIGHT MLS,VAFX2071794,N,Y,38.757555,-77.220724
MLS Listing,,Single Family Residential,8720 Redman St,Springfield,VA,22153,835000,3,2.5,CHAPEL ACRES,2049,23048,1957,8,408,,Active,,,https://www.redfin.com/VA/Springfield/8720-Redman-St-22153/home/9800806,BRIGHT MLS,VAFX2073138,N,Y,38.7425341,-77.2465996
MLS Listing,,Single Family Residential,7311 Hogarth St,Springfield,VA,22151,499000,3,1.0,NORTH SPRINGFIELD,1440,10528,1955,10,347,,Active,,,https://www.redfin.com/VA/Springfield/7311-Hogarth-St-22151/home/9720535,BRIGHT MLS,VAFX2072764,N,Y,38.8087564,-77.1981633
MLS Listing,,Townhouse,6385 English Ivy Way,Springfield,VA,22152,699900,2,3.5,KENWOOD HILLS SEC,1972,1936,1988,12,355,114,Active,,,https://www.redfin.com/VA/West-Springfield/6385-English-Ivy-Way-22152/home/9772754,BRIGHT MLS,VAFX2072122,N,Y,38.7768294,-77.2374169
MLS Listing,,Townhouse,7803 Wintercress,Springfield,VA,22152,649900,3,3.5,HUNTER VILLAGE,1849,1550,1985,12,351,120,Active,,,https://www.redfin.com/VA/West-Springfield/7803-Wintercress-Ln-22152/home/9776718,BRIGHT MLS,VAFX2072750,N,Y,38.76395,-77.21163
MLS Listing,,Single Family Residential,8519 Wild Spruce Dr,Springfield,VA,22153,985000,4,2.5,MIDDLE RUN ESTATES,3394,8500,1993,12,290,28,Active,,,https://www.redfin.com/VA/Springfield/8519-Wild-Spruce-Dr-22153/home/9775430,BRIGHT MLS,VAFX2072748,N,Y,38.7528086,-77.2390559
MLS Listing,,Townhouse,6168 Forest Creek Ct,Springfield,VA,22152,589000,4,3.5,THE TIMBERS SEC 4T,2211,1550,1985,13,266,90,Active,,,https://www.redfin.com/VA/West-Springfield/6168-Forest-Creek-Ct-22152/home/9740058,BRIGHT MLS,VAFX2071410,N,Y,38.783071,-77.2498899
MLS Listing,,Single Family Residential,5809 Brunswick St,Springfield,VA,22150,1225000,6,5.5,SPRINGFIELD,3579,10831,2021,13,342,,Active,,,https://www.redfin.com/VA/Springfield/5809-Brunswick-St-22150/home/9747042,BRIGHT MLS,VAFX2069954,N,Y,38.7923275,-77.1876291
MLS Listing,,Townhouse,8068 Donegal Ln,Springfield,VA,22153,524999,4,3.0,SUMMIT WALK,1525,1400,1987,14,344,95,Active,June-12-2022 11:00 AM,June-12-2022 01:00 PM,https://www.redfin.com/VA/Springfield/8068-Donegal-Ln-22153/home/9777049,BRIGHT MLS,VAFX2071762,N,Y,38.7535889,-77.2238798
MLS Listing,,Townhouse,9012 Golden Leaf,Springfield,VA,22153,506000,3,3.0,GLENWOOD MANOR,2002,1738,1984,14,253,89,Active,,,https://www.redfin.com/VA/Springfield/9012-Golden-Leaf-Ct-22153/home/9771108,BRIGHT MLS,VAFX2070788,N,Y,38.756276,-77.253275
MLS Listing,,Townhouse,7218 Burton Hill Ct,Springfield,VA,22152,610000,3,3.5,OLDE OAK RIDGE,2274,2380,1992,15,268,93,Active,,,https://www.redfin.com/VA/Springfield/7218-Burton-Hill-Ct-22152/home/9775436,BRIGHT MLS,VAFX2071734,N,Y,38.7579319,-77.233518
MLS Listing,,Townhouse,7952 Hidden Bridge Dr,Springfield,VA,22153,599000,4,3.0,COVERED BRIDGE,1584,1716,1980,18,378,80,Active,,,https://www.redfin.com/VA/Springfield/7952-Hidden-Bridge-Dr-22153/home/9806143,BRIGHT MLS,VAFX2071428,N,Y,38.7294259,-77.219092
MLS Listing,,Single Family Residential,8489 Falling Leaf Rd,Springfield,VA,22153,735000,5,2.5,NEWINGTON FOREST,3127,9785,1978,19,235,51,Active,,,https://www.redfin.com/VA/Springfield/8489-Falling-Leaf-Rd-22153/home/9801005,BRIGHT MLS,VAFX2070700,N,Y,38.7430705,-77.2379782
MLS Listing,,Single Family Residential,6823 Stringer Ct,Springfield,VA,22150,650000,4,3.0,BEN FRANKLIN PARK,2276,6285,1977,20,286,,Active,,,https://www.redfin.com/VA/Springfield/6823-Stringer-Ct-22150/home/9777795,BRIGHT MLS,VAFX2071158,N,Y,38.7693562,-77.1875842
MLS Listing,,Townhouse,8260 Crestmont Cir,Springfield,VA,22153,460000,2,1.5,PT NEWINGTON FOREST,930,1059,1981,20,495,83,Active,,,https://www.redfin.com/VA/Springfield/8260-Crestmont-Cir-22153/home/9804289,BRIGHT MLS,VAFX2070736,N,Y,38.73251,-77.2297491
MLS Listing,,Single Family Residential,7723 Carrleigh Pkwy,Springfield,VA,22152,924900,6,4.5,CARDINAL FOREST,4198,12286,1970,20,220,,Active,,,https://www.redfin.com/VA/West-Springfield/7723-Carrleigh-Pkwy-22152/home/9745881,BRIGHT MLS,VAFX2069466,N,Y,38.7839015,-77.2111894
MLS Listing,,Single Family Residential,6396 Phillip Ct,Springfield,VA,22152,750000,5,3.5,KENWOOD OAKS,2609,11618,1983,22,287,,Active,,,https://www.redfin.com/VA/West-Springfield/6396-Phillip-Ct-22152/home/9772639,BRIGHT MLS,VAFX2067736,N,Y,38.7761434,-77.2387716
MLS Listing,,Townhouse,9032 Armendown Dr,Springfield,VA,22152,538000,3,3.0,SHANNON STATION,1448,1600,1983,22,372,83,Active,,,https://www.redfin.com/VA/Springfield/9032-Armendown-Dr-22152/home/9740295,BRIGHT MLS,VAFX2068912,N,Y,38.7788519,-77.2578132
MLS Listing,,Single Family Residential,9104 Joyce Phillip Ct,Springfield,VA,22153,799000,4,2.5,ORANGE HUNT ESTATES,2303,11350,1970,27,347,,Active,,,https://www.redfin.com/VA/Springfield/9104-Joyce-Phillip-Ct-22153/home/9767364,BRIGHT MLS,VAFX2065238,N,Y,38.7671064,-77.2570163
MLS Listing,,Single Family Residential,7261 Linden Tree Ln,Springfield,VA,22152,619900,4,2.0,LINDENWOOD,1800,7744,1984,27,344,,Active,,,https://www.redfin.com/VA/Springfield/7261-Linden-Tree-Ln-22152/home/9775258,BRIGHT MLS,VAFX2069236,N,Y,38.7582976,-77.2348348
MLS Listing,,Single Family Residential,6126 Bardu Ave,Springfield,VA,22152,749999,6,4.0,KEENE MILL MANOR,3162,11967,1961,6,237,,Active,,,https://www.redfin.com/VA/West-Springfield/6126-Bardu-Ave-22152/home/9744944,BRIGHT MLS,VAFX2069020,N,Y,38.7849459,-77.2189819
MLS Listing,,Single Family Residential,8604 Lauren Dr,Springfield,VA,22153,699900,3,3.5,KNOLLS AT MIDDLE RUN,2744,13627,1989,28,255,18,Active,,,https://www.redfin.com/VA/Springfield/8604-Lauren-Dr-22153/home/9775590,BRIGHT MLS,VAFX2068124,N,Y,38.7516566,-77.2424686
MLS Listing,,Single Family Residential,8321 Rolling Rd,Springfield,VA,22153,695000,4,3.0,ROLLINGWOOD,2834,24750,1958,28,245,,Active,,,https://www.redfin.com/VA/Springfield/8321-Rolling-Rd-22153/home/9805426,BRIGHT MLS,VAFX2067608,N,Y,38.732122,-77.2081576
MLS Listing,,Single Family Residential,6710 Rolling Rd,Springfield,VA,22152,689900,4,2.5,WEST SPRINGFIELD,2096,10500,1967,31,329,,Active,,,https://www.redfin.com/VA/West-Springfield/6710-Rolling-Rd-22152/home/9772123,BRIGHT MLS,VAFX2067788,N,Y,38.7699412,-77.2309728
MLS Listing,,Townhouse,7223 Olde Lantern Way,Springfield,VA,22152,589900,3,2.5,OLDE OAK RIDGE,1995,2178,1989,34,296,93,Active,,,https://www.redfin.com/VA/Springfield/7223-Olde-Lantern-Way-22152/home/9775500,BRIGHT MLS,VAFX2064002,N,Y,38.759076,-77.229409
MLS Listing,,Single Family Residential,6929 Colburn Dr,Annandale,VA,22003,800000,4,2.5,SUNSET WOODS,1748,21064,1984,34,458,,Active,,,https://www.redfin.com/VA/Annandale/6929-Colburn-Dr-22003/home/9722395,BRIGHT MLS,VAFX2067240,N,Y,38.8122773,-77.1820809
MLS Listing,,Single Family Residential,8434 Thames St,Springfield,VA,22151,725000,5,3.5,KINGS PARK,2849,10500,1963,33,254,,Active,,,https://www.redfin.com/VA/Springfield/8434-Thames-St-22151/home/9714527,BRIGHT MLS,VAFX2065532,N,Y,38.8085716,-77.2358676
MLS Listing,,Single Family Residential,7661 Long Pine Dr,Springfield,VA,22151,650000,4,3.0,NORTH SPRINGFIELD,2340,20626,1958,38,278,,Active,,,https://www.redfin.com/VA/Springfield/7661-Long-Pine-Dr-22151/home/9746857,BRIGHT MLS,VAFX2066282,N,Y,38.7978837,-77.2072593
MLS Listing,,Townhouse,6585 Forest Dew Ct,Springfield,VA,22152,475000,2,3.0,KEENE MILL VILLAGE SEC 3,1400,1600,1985,32,339,110,Active,,,https://www.redfin.com/VA/Springfield/6585-Forest-Dew-Ct-22152/home/9768370,BRIGHT MLS,VAFX2064966,N,Y,38.7761941,-77.2594295
MLS Listing,,Townhouse,6356 Shaundale Dr,Springfield,VA,22152,525000,4,3.5,SHANNON STATION,1777,1601,1980,40,295,83,Active,,,https://www.redfin.com/VA/Springfield/6356-Shaundale-Dr-22152/home/9740159,BRIGHT MLS,VAFX2064160,N,Y,38.7787008,-77.2523469
MLS Listing,,Single Family Residential,6513 Fleet Dr,Alexandria,VA,22310,599900,3,2.5,SHIRLEY PARK,1625,13547,1952,48,369,,Active,,,https://www.redfin.com/VA/Alexandria/6513-Fleet-Dr-22310/home/9780430,BRIGHT MLS,VAFX2063238,N,Y,38.7762952,-77.1564702
MLS Listing,,Single Family Residential,7205 Kyles Lndg,Springfield,VA,22150,899900,4,2.5,MEYERS,3353,13067,1991,50,268,,Active,,,https://www.redfin.com/VA/SPRINGFIELD/7205-KYLES-LNDG-22150/home/9779016,BRIGHT MLS,VAFX2060844,N,Y,38.761002,-77.199805
MLS Listing,,Single Family Residential,7228 Braddock Rd,Annandale,VA,22003,560000,4,2.5,1ST ADDN LEEWOOD,3588,60866,2008,93,156,,Active,,,https://www.redfin.com/VA/Annandale/7228-Braddock-Rd-22003/home/12065246,BRIGHT MLS,VAFX2054628,N,Y,38.8123145,-77.1952659
